[{"id":6164,"title":"Tiger Island","latitude":33.21865629601742853,"longitude":126.5166234970092915,"types":"\"Cave, Reef, Wall\"","location_title":"Seogwipo"},
{"id":8205,"title":"문섬","latitude":33.22813400963651275,"longitude":126.5673923492431783,"types":"\"Wreck, Drift, Reef, Wall, Channel, Ocean\"","location_title":"Seogwipo"},
{"id":10863,"title":"문섬 난파선","latitude":33.22831080971808149,"longitude":126.5659799603655671,"types":"\"Wreck\"","location_title":"Seogwipo"},
{"id":6887,"title":"숲섬","latitude":33.2298930177402454,"longitude":126.5991067886352681,"types":"\"Beach, Drift, Reef, Sandy bottom, Wall\"","location_title":"Seogwipo"},
{"id":9843,"title":"섶섬","latitude":33.23193916632725831,"longitude":126.5998792648315572,"types":"\"Drift, Wall\"","location_title":"Seogwipo"},
{"id":6182,"title":"섶섬 작은한개창","latitude":33.23204685703203154,"longitude":126.5985918045044087,"types":"\"Wall\"","location_title":"Seogwipo"},
{"id":11285,"title":"Oedolgae","latitude":33.23509803855682065,"longitude":126.5468788146972798,"types":"\"Pinnacle, Reef\"","location_title":"Seogwipo"},
{"id":10865,"title":"lobster crack","latitude":33.45496847839537935,"longitude":126.9437170028686665,"types":"\"Cavern\"","location_title":"Jeju City"},
{"id":12019,"title":null,"latitude":33.51542916845697561,"longitude":126.4841849046588039,"types":null,"location_title":null}]
